{"code":"JP","name":"Japan","lat":36.2,"lng":138.25,"zoom":5,"regions":[{"name":"Tokyo","lat":35.68,"lng":139.76,"cities":[{"locationId":"JP:tokyo:tokyo","name":"Tokyo","lat":35.6812,"lng":139.7671},{"locationId":"JP:tokyo:shibuya","name":"Shibuya","lat":35.6595,"lng":139.7004},{"locationId":"JP:tokyo:shinjuku","name":"Shinjuku","lat":35.6938,"lng":139.7034}]},{"name":"Osaka","lat":34.69,"lng":135.5,"cities":[{"locationId":"JP:osaka:osaka","name":"Osaka","lat":34.6937,"lng":135.5023},{"locationId":"JP:osaka:namba","name":"Namba","lat":34.665,"lng":135.501}]},{"name":"Kyoto","lat":35.01,"lng":135.77,"cities":[{"locationId":"JP:kyoto:kyoto","name":"Kyoto","lat":35.0116,"lng":135.7681},{"locationId":"JP:kyoto:gion","name":"Gion","lat":35.0037,"lng":135.778}]},{"name":"Hokkaido","lat":43.06,"lng":141.35,"cities":[{"locationId":"JP:hokkaido:sapporo","name":"Sapporo","lat":43.0618,"lng":141.3545},{"locationId":"JP:hokkaido:hakodate","name":"Hakodate","lat":41.7687,"lng":140.729}]}]}