{"code":"KR","name":"South Korea","lat":36.5,"lng":127.8,"zoom":6.5,"regions":[{"name":"Seoul","lat":37.57,"lng":126.98,"cities":[{"locationId":"KR:seoul:seoul","name":"Seoul","lat":37.5665,"lng":126.978},{"locationId":"KR:seoul:gangnam","name":"Gangnam","lat":37.4979,"lng":127.0276}]},{"name":"Busan","lat":35.18,"lng":129.08,"cities":[{"locationId":"KR:busan:busan","name":"Busan","lat":35.1796,"lng":129.0756}]}]}